[
  {
    "slug": "ancien-palais-de-justice",
    "name": "Ancienn Palais de Justice",
    "lat": 14.65247,
    "lng": -17.4334,
    "excerpt": "A vibrant street mural celebrating local women artists."
  },
  {
    "slug": "museum-of-black-civilizations",
    "name": "The Museum of Black Civilizations",
    "lat": 14.67757,
    "lng": -17.43516,
    "excerpt": "One of West Africa’s oldest art museums, showcasing Senegalese and regional artworks."
  },
  {
    "slug": "village-des-arts",
    "name": "Village des Arts",
    "lat": 14.746776752425195,
    "lng": -17.457127899854584,
    "excerpt": "A creative hub for local artists, featuring studios, galleries, and workshops."
  },
  {
    "slug": "monument-de-la-renaissance-africaine",
    "name": "Monument de la Renaissance Africaine",
    "lat": 14.72222,
    "lng": -17.495,
    "excerpt": "The iconic bronze statue symbolizing African emergence and unity."
  },
  {
    "slug": "the-ranga-cafe",
    "name": "The'ranga Café",
    "lat": 14.72485500359302,
    "lng": -17.49965499999999,
    "excerpt": "An 'OFF' part of the Biennale."
  },
  {
    "slug": "tata-senegal-gallery",
    "name": "Tata Senegal Gallery",
    "lat": 14.6901,
    "lng": -17.4458,
    "excerpt": "Contemporary gallery space highlighting emerging Senegalese multimedia artists."
  }
]
